[{"global_id":634960233,"ID":4,"Name":"БОР-1","AdmArea":"Юго-Западный административный округ","District":"район Ясенево","Address":"Новоясеневский проспект, дом 25/20","ManagementCompany":"«Бор-1»","INN":"7736158254","LegalAddressOfManagementCompany":"119333, Москва г, Фотиевой ул","MarketType":"Специализированный (сельскохозяйственный)","geoData":{"type":"Point","coordinates":[37.555417,55.599169]}},{"global_id":634960515,"ID":71,"Name":"рынок Лианозово","AdmArea":"Северо-Восточный административный округ","District":"район Лианозово","Address":"Лианозовский проезд, владение 1","ManagementCompany":"Автохозяйство Лианозово","INN":"7715039464","LegalAddressOfManagementCompany":"127576, Москва г, Илимская ул, дом № 1","MarketType":"Специализированный (сельскохозяйственный)","geoData":{"type":"Point","coordinates":[37.554883,55.897109]}},{"global_id":634960785,"ID":15,"Name":"Ленинградский рынок","AdmArea":"Северный административный округ","District":"район Аэропорт","Address":"город Москва, Часовая улица, дом 11","ManagementCompany":"«Калужская Управляющая Компания»","LegalAddressOfManagementCompany":"107031 г. Москва, \nул. Кузнецкий мост, д.7","MarketType":"Специализированный (сельскохозяйственный)","geoData":{"type":"Point","coordinates":[37.529546,55.808488]}},{"global_id":634960884,"ID":17,"Name":"Солнцевский рынок","AdmArea":"Западный административный округ","District":"район Солнцево","Address":"улица Щорса, дом 5, корпус 1","ManagementCompany":"«Сигма-ХХI век»","INN":"7730124178","LegalAddressOfManagementCompany":"121165, город Москва, Студенческая улица, дом 31, строение 1","MarketType":"Специализированный (сельскохозяйственный)","geoData":{"type":"Point","coordinates":[37.40742,55.646096]}},{"global_id":634961048,"ID":18,"Name":"Рижский рынок","AdmArea":"Центральный административный округ","District":"Мещанский район","Address":"город Москва, проспект Мира, дом 88, строение 1","ManagementCompany":"«Рижский рынок»","INN":"7702079614","LegalAddressOfManagementCompany":"129110, город Москва, проспект Мира, дом 88","MarketType":"Специализированный (сельскохозяйственный)","geoData":{"type":"Point","coordinates":[37.637058,55.793346]}},{"global_id":634961204,"ID":22,"Name":"Коптевский рынок","AdmArea":"Северный административный округ","District":"район Коптево","Address":"город Москва, Коптевская улица, дом 24, строение 1","ManagementCompany":"«Коптевский рынок»","INN":"7743616917","LegalAddressOfManagementCompany":"125239, город Москва, Коптевская улица, дом 24","MarketType":"Специализированный (сельскохозяйственный)","geoData":{"type":"Point","coordinates":[37.521984,55.833476]}},{"global_id":634961303,"ID":26,"Name":"Северный рынок","AdmArea":"Северо-Восточный административный округ","District":"Лосиноостровский район","Address":"улица Лётчика Бабушкина, дом 30, строение 1","ManagementCompany":"«Северный рынок»","INN":"7716542938","LegalAddressOfManagementCompany":"129281, Москва г, Летчика Бабушкина ул, дом № 30, строение 1","MarketType":"Специализированный (сельскохозяйственный)","geoData":{"type":"Point","coordinates":[37.676861,55.870152]}},{"global_id":634961484,"ID":27,"Name":"рынок Яковлевское","AdmArea":"Троицкий административный округ","District":"поселение Новофедоровское","Address":"деревня Яковлевское, дом 1","ManagementCompany":"СВЕАЛ","LegalAddressOfManagementCompany":"143396, Москва г, Первомайское п, Верховье (Первомайское) д","MarketType":"Универсальный","geoData":{"type":"Point","coordinates":[36.941086,55.46347]}},{"global_id":634961621,"ID":29,"Name":"Новокосинский Торговый центр","AdmArea":"Восточный административный округ","District":"район Новокосино","Address":"Суздальская улица, дом 25А, строение 1","ManagementCompany":"«Крона-Маркет»","INN":"7702016340","LegalAddressOfManagementCompany":"111672, Москва г","MarketType":"Универсальный","geoData":{"type":"Point","coordinates":[37.878632,55.747698]}},{"global_id":634961733,"ID":30,"Name":"Преображенский рынок","AdmArea":"Восточный административный округ","District":"район Преображенское","Address":"улица Преображенский Вал, дом 17, строение 1","ManagementCompany":"«Преображенский рынок»","INN":"7718016306","LegalAddressOfManagementCompany":"107061, Москва г, Преображенский Вал ул, дом № 17","MarketType":"Специализированный (сельскохозяйственный)","geoData":{"type":"Point","coordinates":[37.718787,55.793149]}},{"global_id":634962123,"ID":37,"Name":"Барс-2","AdmArea":"Юго-Восточный административный округ","District":"район Марьино","Address":"Новочеркасский бульвар, владение 5А, строение 1","ManagementCompany":"«Барс-2»","INN":"5027040779","LegalAddressOfManagementCompany":"140011, Московская область, Люберецкий район, город Люберцы, Шоссейная улица, дом 2","MarketType":"Специализированный (сельскохозяйственный)","geoData":{"type":"Point","coordinates":[37.719471,55.646725]}},{"global_id":634962356,"ID":40,"Name":"Люблинский рынок","AdmArea":"Юго-Восточный административный округ","District":"район Текстильщики","Address":"Люблинская улица, дом 10, строение 1","ManagementCompany":"«ЛЮБЛИНСКИЙ РЫНОК»","INN":"7723001859","LegalAddressOfManagementCompany":"Москва г, Люблинская ул, дом № 10-12","MarketType":"Специализированный (сельскохозяйственный)","geoData":{"type":"Point","coordinates":[37.731897,55.700639]}},{"global_id":634962532,"ID":41,"Name":"Велозаводский рынок","AdmArea":"Юго-Восточный административный округ","District":"Южнопортовый район","Address":"Велозаводская улица, дом 13, строение 1","ManagementCompany":"«Велозаводский рынок»","INN":"7723079559","LegalAddressOfManagementCompany":"115280, город Москва, Велозаводская улица, дом 13","MarketType":"Специализированный (сельскохозяйственный)","geoData":{"type":"Point","coordinates":[37.668006,55.710456]}},{"global_id":634962619,"ID":42,"Name":"Даниловский рынок","AdmArea":"Южный административный округ","District":"Даниловский район","Address":"Мытная улица, дом 74","ManagementCompany":"«Даниловский рынок»","INN":"7725582006","LegalAddressOfManagementCompany":"115191, город Москва, Мытная улица, дом 74","MarketType":"Специализированный (сельскохозяйственный)","geoData":{"type":"Point","coordinates":[37.620375,55.712142]}},{"global_id":634962886,"ID":45,"Name":"Царицынский рынок","AdmArea":"Южный административный округ","District":"район Царицыно","Address":"Каспийская улица, дом 36","ManagementCompany":"«Рыночный комплекс «Царицынский»","INN":"7724561282","OGRN":"1057749116039","LegalAddressOfManagementCompany":"115516, город Москва, Каспийская улица, дом 36","MarketType":"Специализированный (сельскохозяйственный)","geoData":{"type":"Point","coordinates":[37.667025,55.618861]}},{"global_id":634962939,"ID":50,"Name":"Калужская сельхоз ярмарка","AdmArea":"Юго-Западный административный округ","District":"район Ясенево","Address":"Профсоюзная улица, строение Б/Н","ManagementCompany":"«Калужская сельскохозяйственная ярмарка»","INN":"7707257910","LegalAddressOfManagementCompany":"107031, Москва г, Кузнецкий Мост ул, дом № 7","MarketType":"Специализированный (сельскохозяйственный)","geoData":{"type":"Point","coordinates":[37.508853,55.618151]}},{"global_id":634963249,"ID":51,"Name":"рынок Теплый стан","AdmArea":"Юго-Западный административный округ","District":"район Тёплый Стан","Address":"улица Тёплый Стан, владение 1Б, строение 1","ManagementCompany":"«СТРОЙТЕХиНВЕСТ»","INN":"7724506193","LegalAddressOfManagementCompany":"Москва г, Теплый Стан ул, дом № 1Б,  3","MarketType":"Специализированный (сельскохозяйственный)","geoData":{"type":"Point","coordinates":[37.50132,55.618773]}},{"global_id":634963314,"ID":79,"Name":"рынок Карен","AdmArea":"Юго-Западный административный округ","District":"район Ясенево","Address":"Новоясеневский проспект, дом 1Б, корпус 2","ManagementCompany":"«Торговая компания - КАРЕН»","INN":"7715073017","LegalAddressOfManagementCompany":"123181, Москва г, Неманский проезд, дом № 4,  2","MarketType":"Специализированный (сельскохозяйственный)","geoData":{"type":"Point","coordinates":[37.509531,55.618209]}},{"global_id":634963478,"ID":53,"Name":"Черёмушкинский рынок","AdmArea":"Юго-Западный административный округ","District":"Гагаринский район","Address":"город Москва, улица Вавилова, дом 64/1, строение 1","ManagementCompany":"Черемушкинский торг","INN":"7736273828","KPP":"773601001","LegalAddressOfManagementCompany":"119261, Москва, ул. Вавилова, дом 64/1, строение 1","MarketType":"Специализированный (сельскохозяйственный)","geoData":{"type":"Point","coordinates":[37.550567,55.683919]}},{"global_id":634963692,"ID":54,"Name":"Дорогомиловский рынок","AdmArea":"Западный административный округ","District":"район Дорогомилово","Address":"улица Можайский Вал, дом 10","ManagementCompany":"ДАНВИТА","INN":"7731002422","LegalAddressOfManagementCompany":"121151, Москва г, Можайский Вал ул, дом № 10","MarketType":"Специализированный (сельскохозяйственный)","geoData":{"type":"Point","coordinates":[37.554205,55.742823]}},{"global_id":634963783,"ID":56,"Name":"Кунцевский рынок","AdmArea":"Западный административный округ","District":"Можайский район","Address":"улица Маршала Неделина, дом 19","ManagementCompany":"«Кунцевский рынок»","INN":"7731540043","LegalAddressOfManagementCompany":"121354, город Москва, улица Маршала Неделина, дом 19","MarketType":"Специализированный (сельскохозяйственный)","geoData":{"type":"Point","coordinates":[37.406954,55.725998]}},{"global_id":634963909,"ID":63,"Name":"Магазин Ценральный","AdmArea":"Троицкий административный округ","District":"поселение Троицк","Address":"г. Троицк, город Троицк, Октябрьский проспект, дом 16Б","ManagementCompany":"г. Троицка Магазин «Центральный»","INN":"5046041506","KPP":"775101001","OGRN":"1035009352223","LegalAddressOfManagementCompany":"142191, Москва г, Троицк г, Академика Верещагина пл, дом № 1","MarketType":"Универсальный","geoData":{"type":"Point","coordinates":[37.298387,55.476547]}},{"global_id":634964048,"ID":66,"Name":"Воскресенский рынок","AdmArea":"Новомосковский административный округ","District":"поселение Воскресенское","Address":"посёлок Воскресенское, дом 28А","ManagementCompany":"Сампо","INN":"5003025179","LegalAddressOfManagementCompany":"142791, город Москва, поселение Воскресенское,поселок подсобного хозяйства Воскресенское, дом 28","MarketType":"Специализированный (сельскохозяйственный)","geoData":{"type":"Point","coordinates":[37.444456,55.529558]}},{"global_id":634964186,"ID":69,"Name":"Ярмарка на Рижской","AdmArea":"Северо-Восточный административный округ","District":"Алексеевский район","Address":"проспект Мира, владение 98А, строение 1","ManagementCompany":"Фирма «ИЛИОН-ТРЕЙД»","INN":"7709008637","LegalAddressOfManagementCompany":"129110, город Москва, Водопроводный переулок, дом 1","MarketType":"Специализированный (радиорынок)","geoData":{"type":"Point","coordinates":[37.637758,55.79643]}},{"global_id":885653837,"ID":33,"Name":"рынок Садовод","AdmArea":"Юго-Восточный административный округ","District":"район Капотня","Address":"МКАД, 14-й километр, дом 2, строение 1","ManagementCompany":"«Оптово-розничный рынок «Садовод»","INN":"7723129143","LegalAddressOfManagementCompany":"109429, город Москва, 14-й километр Московской Кольцевой Автодороги, владение 2, строение 3","MarketType":"Универсальный","geoData":{"type":"Point","coordinates":[37.8343,55.654689]}}]